[
  {
    "id": 1,
    "name": "溪頭自然教育園區",
    "description": "擁有豐富的森林生態，空氣清新，是避暑勝地。園區內有大學池、銀杏林、空中走廊等著名景點。",
    "image": "",
    "address": "南投縣鹿谷鄉內湖村森林巷9號",
    "phone": "049-261-2111",
    "hours": "07:00 - 17:00",
    "features": ["森林浴", "生態教育", "健行步道", "空中走廊"],
    "coordinates": {
      "lat": 23.6738,
      "lng": 120.7956
    }
  },
  {
    "id": 2,
    "name": "妖怪村",
    "description": "充滿日式風情的觀光景點，有各種妖怪主題商店和裝置藝術，適合親子同遊。",
    "image": "",
    "address": "南投縣鹿谷鄉內湖村興產路2-3號",
    "phone": "049-261-2121",
    "hours": "10:00 - 20:00",
    "features": ["主題商店", "裝置藝術", "親子活動", "日式風格"],
    "coordinates": {
      "lat": 23.6722,
      "lng": 120.7947
    }
  },
  {
    "id": 3,
    "name": "鳳凰谷鳥園",
    "description": "台灣第一座大型鳥類生態展示園區，展示各種珍貴鳥類，適合生態教育和親子遊覽。",
    "image": "",
    "address": "南投縣鹿谷鄉鳳凰村仁義路1-9號",
    "phone": "049-275-3100",
    "hours": "08:00 - 17:00",
    "features": ["鳥類展示", "生態教育", "親子活動", "自然生態"],
    "coordinates": {
      "lat": 23.7192,
      "lng": 120.7803
    }
  },
  {
    "id": 4,
    "name": "麒麟潭",
    "description": "寧靜優美的湖泊，四周環山，是拍照和休閒的好去處。適合散步、釣魚和露營。",
    "image": "",
    "address": "南投縣鹿谷鄉麒麟村",
    "phone": "",
    "hours": "全天開放",
    "features": ["湖光山色", "攝影", "休閒", "露營"],
    "coordinates": {
      "lat": 23.7397,
      "lng": 120.7531
    }
  },
  {
    "id": 5,
    "name": "大崙山觀光茶園",
    "description": "欣賞雲海和茶園風光的最佳地點，可以品茗、購買茶葉，體驗製茶過程。",
    "image": "",
    "address": "南投縣鹿谷鄉羊彎巷800-1號",
    "phone": "049-267-7628",
    "hours": "08:00 - 17:00",
    "features": ["茶園風光", "品茗", "雲海", "製茶體驗"],
    "coordinates": {
      "lat": 23.7556,
      "lng": 120.7689
    }
  },
  {
    "id": 6,
    "name": "小半天石馬公園",
    "description": "以櫻花和孟宗竹聞名的公園，春季櫻花盛開時特別美麗，是賞櫻勝地。",
    "image": "",
    "address": "南投縣鹿谷鄉竹林村光復路",
    "phone": "",
    "hours": "全天開放",
    "features": ["賞櫻", "竹林", "公園", "休閒"],
    "coordinates": {
      "lat": 23.7492,
      "lng": 120.7425
    }
  }
]

